[
{
    "region": "Occidente",
    "department": "Quiché",
    "name": "-",
    "phone": "35678559 - 24232125",
    "address": "0 Avenida 1-57, zona 2, Santa Cruz del Quiché, Quiché",
    "coordinates": [15.032687, -91.148199],
    "image": "/image/mintrab.webp",
    "hierarchy": "Sede",
    "position": "Director",
    "location": "https://maps.app.goo.gl/7hVvcFDBzpW9yyJp7"
},
{
    "region": "Norte",
    "department": "Alta Verapaz",
    "name": "-",
    "phone": "35667829",
    "address": "4a. Calle 2-033 zona 2, Cobán, Alta Verapaz",
    "coordinates": [15.46858091695396, -90.37465257833394],
    "image": "/image/mintrab.webp",
    "hierarchy": "Sede",
    "position": "Directora",
    "location": "https://maps.app.goo.gl/4cMvLx8CHYqjCRw3A"
},
{
    "region": "Norte",
    "department": "Petén",
    "name": " Licda. Rubí Dinora Reyes Donis",
    "phone": "35660487 - 24232127",
    "address": "6ta Calle 3 av. Zona 6, Barrio El Porvenir San Benito, Petén.",
    "coordinates": [16.914619, -89.908115],
    "image": "/image/mintrab.webp",
    "hierarchy": "Sede",
    "position": "Director",
    "location": "https://maps.app.goo.gl/JiCLkhGbBqjbb1R77"
},
{
    "region": "Centro",
    "department": "Sacatepéquez",
    "name": "Carlos Francisco Azurdia Castellanos",
    "phone": "35669137",
    "address": "Antigua-00, Callejón El Copante L-133, Apto B, zona 0, Antigua Guatemala, Sacatepéquez",
    "coordinates": [14.5699871, -90.741149],
    "image": "/image/Carlos-Francisco-Azurdia-Casgellanos,-Sacatepéquez.webp",
    "hierarchy": "Sede",
    "position": "Director",
    "location": "https://maps.app.goo.gl/wgKuscJJP6vkwYd97"
},
{
    "region": "Centro",
    "department": "Chimaltenango",
    "name": "Catarina Gricelda García Méndez de Lima",
    "phone": "35663735 - 24232129",
    "address": "6ta Avenida 1-26 Zona 4, Chimaltenango, Chimaltenango.",
    "coordinates": [14.660649747426852, -90.82439594068423],
    "image": "/image/Catarina-Gricelda-García-Méndez,-Chimaltenango.webp",
    "hierarchy": "Sede",
    "position": "Directora",
    "location": "https://maps.app.goo.gl/vcDPUVSbHuMjX2g46"
},
{
    "region": "Oriente",
    "department": "Jalapa",
    "name": "Harol Esmélin Monterroso",
    "phone": "35668701  - 24232130",
    "address": "Avenida Chipilapa o-62, zona 5, Barrio San Francisco, Jalapa",
    "coordinates": [14.630971, -89.984786],
    "image": "/image/mintrab.webp",
    "hierarchy": "Sede",
    "position": "Director",
    "location": "https://maps.app.goo.gl/PWJ4Vnaqr6b4ZHDb6"
},
{
    "region": "Oriente",
    "department": "Santa Rosa ",
    "name": "Damaris  Nohelia Revolorio de Paz",
    "phone": "35663737 - 24232131",
    "address": "1era Avenida 1-77, Zona 3, Calle 15 de septiembre, Barrio la Parroquia, Cuilapa, Santa Rosa.",
    "coordinates": [14.28032, -90.298917],
    "image": "/image/Damaris-Nohelia-Revolución-de-Paz,-Santa-Rosa.webp",
    "hierarchy": "Sede",
    "position": "Directora",
    "location": "https://maps.app.goo.gl/9LhKtFC4eLpn7Yqz8"
},
{
    "region": "Oriente",
    "department": "Jutiapa",
    "name": "Gilda Elena Lopez Ramirez",
    "phone": "35668483 - 24232132",
    "address": "5ta Avenida 0-19, Zona 3, Jutiapa, Jutiapa.",
    "coordinates": [14.29628501601057, -89.89753877077936],
    "image": "/image/Gilda-Elena-López-Ramírez,-Jutiapa.webp",
    "hierarchy": "Sede",
    "position": "Directora",
    "location": "https://maps.app.goo.gl/cm7QF3C7zYbx3fc88"
},
{
    "region": "Centro",
    "department": "Sololá",
    "name": "Jeremías Buch Coroxón",
    "phone": "35669144 - 24232133",
    "address": "13 Calle 8-60 Zona 2, Barrio San Bartolo, Sololá.",
    "coordinates": [14.7685721, -91.1813319],
    "image": "/image/Jeremías-Buch-Goroch,-Sólola.webp",
    "hierarchy": "Sede",
    "position": "Director",
    "location": "https://maps.app.goo.gl/73TigYDCF33gEeYB8"
},
{
    "region": "Oriente",
    "department": "El Progreso ",
    "name": "José Leonardo Cardona Castillo",
    "phone": "35664943 - 24232134",
    "address": "Barrio El Porvenir, Casco Urbano, Guastatoya, El Progreso",
    "coordinates": [14.85638, -90.06817],
    "image": "/image/José-Leonardo-Cardona-Castillo,-Progreso.webp",
    "hierarchy": "Sede",
    "position": "Director",
    "location": "https://maps.google.com/?q=14.856371,-90.068176"
},
{
    "region": "Oriente",
    "department": "Chiquimula ",
    "name": "Lesly Yesenia López Archila",
    "phone": "35665214 - 24232135",
    "address": "9ª. Avenida 5-81 zona 1, Chiquimula, Chiquimula",
    "coordinates": [14.7970887, -89.5434381],
    "image": "/image/Lesly-Yesenia-López-Archila,-Chiquimula.webp",
    "hierarchy": "Sede",
    "position": "Directora",
    "location": "https://maps.app.goo.gl/PiPjjBucV6Va1UddA"
},
{
    "region": "Occidente",
    "department": "Huehuetenango",
    "name": "Maria del Rosario Lopez  Villatoro",
    "phone": "35673507 - 24232136",
    "address": "1ª. Calle B 5-23, zona 8, Proyecto San José, Huehuetenango",
    "coordinates": [15.313418, -91.473207],
    "image": "/image/María-del-Rosario-López-Villatoro,-Huehuetenango.webp",
    "hierarchy": "Sede",
    "position": "Directora",
    "location": "https://maps.app.goo.gl/NoKvsxPFWEYJMFVH8"
},
{
    "region": "Occidente",
    "department": "Quetzaltenango ",
    "name": "Maria Elena Sucuqui Chinol de Osorio",
    "phone": "79435874 - 24232137",
    "address": "8va Calle A 29-75 Zona 7, Quetzaltenango.",
    "coordinates": [14.858075615352575, -91.52205201239369],
    "image": "/image/María-Elena-Sucuqui-Chinol-de-Osorio-,-Quetzaltenango.webp",
    "hierarchy": "Sede",
    "position": "Directora",
    "location": "https://maps.app.goo.gl/gMNGqepwghuqDwWW9"
},
{
    "region": "Occidente",
    "department": "Totonicapán ",
    "name": "Maria Eugenia Tzunun Pacheco",
    "phone": "35662947 - 24232138",
    "address": "13va Avenida 2-50 zona 2, Totonicapán ",
    "coordinates": [14.912337, -91.363493],
    "image": "/image/María-Eugenia-Tzunún-Pacheco,-Totonicapán.webp",
    "hierarchy": "Sede",
    "position": "Directora",
    "location": "https://maps.app.goo.gl/JmNLQyRxs4eJCae87"
},
{
    "region": "Sur",
    "department": "Retalhuleu",
    "name": "Melanie Alejandra González Gil",
    "phone": "35677634 - 24232139",
    "address": "9ª. Calle Lote 370 y 5B, Fase VIII, Residenciales Bella Aurora, Retalhuleu.  ",
    "coordinates": [14.534119, -91.675368],
    "image": "/image/Melanie-Alejandra-González-Gil,-Retalhuleu.webp",
    "hierarchy": "Sede",
    "position": "Directora",
    "location": "https://maps.app.goo.gl/TVDpp1ixzwTSwdMA6"
},
{
    "region": "Sur",
    "department": "Suchitepéquez",
    "name": "Natalia Elizabeth Chavaloc Chay",
    "phone": "35670965 - 24232140",
    "address": "2da Avenida 1-78 zona 2, Cantón Santa Cristina, Mazatenango, Suchitepéquez",
    "coordinates": [14.533018, -91.508382],
    "image": "/image/Natalia-Elizabeth-Chavaloc-Chay,-Suchitepéquez.webp",
    "hierarchy": "Sede",
    "position": "Directora",
    "location": "https://maps.app.goo.gl/yM6z7otoNXZH2YQv6"
},
{
    "region": "Sur",
    "department": "San Marcos ",
    "name": "Siomara de los Angeles Gil ",
    "phone": "35672959 - 24232141",
    "address": "5a. Calle 13-90 zona 4, San Marcos, San Marcos",
    "coordinates": [14.962784, -91.793989],
    "image": "/image/Siomara-de-los-Ángeles-Gil,-San-Marcos.webp",
    "hierarchy": "Sede",
    "position": "Directora",
    "location": "https://maps.app.goo.gl/ffckdQ2XeTdRGD1w7"
},
{
    "region": "Sur",
    "department": "Escuintla",
    "name": "Vanessa Julieta Baldetti Perez",
    "phone": "35677995 - 24232142",
    "address": "1era Avenida 3-50 Barrio el Paraíso, Zona 3 de Escuintla, Escuintla",
    "coordinates": [14.306259, -90.782433],
    "image": "/image/Vanessa-Julieta-Baldetti-Pérez,-Escuintla.webp",
    "hierarchy": "Sede",
    "position": "Directora",
    "location": "https://maps.app.goo.gl/m7MWfFkS5r9svZyi6"
},
{
    "region": "Norte",
    "department": "Baja Verapaz",
    "name": "Mirna Judith Chavajay y Chavajay",
    "phone": "35661345 - 24232143",
    "address": "10ma. avenida 2-57 z.2, Salamá, Baja Verapaz",
    "coordinates": [15.10585501121102, -90.31200669315147],
    "image": "https://raw.githubusercontent.com/rrgio/sedes_departamentales_MINTRAB/main/image/Mirna-Judith,-Chavajay-Chavajay,-Baja-Verapaz.webp",
    "hierarchy": "Sede",
    "position": "Directora",
    "location": "https://maps.app.goo.gl/qDfjRPtTAm2A25528"
},
{
    "region": "Oriente",
    "department": "Izabal ",
    "name": "Astrid Carola Franco Bailey",
    "phone": "35663885 - 24232144",
    "address": "6 calle y 6 Avenida Esquina, Puerto Barrios, Izabal",
    "coordinates": [15.735731, -88.599135],
    "image": "https://raw.githubusercontent.com/rrgio/sedes_departamentales_MINTRAB/main/image/Astrid-Carola-Franco-Bailey,-Izabal.webp",
    "hierarchy": "Sede",
    "position": "Directora",
    "location": "https://maps.app.goo.gl/ZXM31cFg3jfxixjv6"
},
{
    "region": "Oriente",
    "department": "Zacapa",
    "name": "Marìa Teresa Cabrera Casasola",
    "phone": "24232145 - 35664701",
    "address": "Colonia Bosques de San Julian, Barrio La Ladrillera, Zacapa, Zacapa",
    "coordinates": [14.9719321, -89.5377036],
    "image": "https://raw.githubusercontent.com/rrgio/sedes_departamentales_MINTRAB/main/image/Zacapa,-Marìa-Teresa-Cabrera-Casasola.webp",
    "hierarchy": "Sede",
    "position": "Directora",
    "location": "https://maps.app.goo.gl/DHoBD38euR8Ee4h76"
},
{
    "region": "Occidente",
    "department": "Quetzaltenango",
    "name": "Marleny Beatriz Ravanales Benavides",
    "phone": 24232146,
    "address": "1ra calle 7-25 zona 3 Colonia El Arroyo, Coatepeque, Quetzaltenango",
    "coordinates": [14.696557, -91.858937],
    "image": "/image/mintrab.webp",
    "hierarchy": "Jefatura",
    "position": "Inspectora",
    "location": "https://maps.app.goo.gl/q5ip8SDiUxVuKLLX7"
},
{
    "region": "Sur",
    "department": "Escuintla",
    "name": "Miriam Dayanna Zárate Xiloj",
    "phone": "24232148",
    "address": "1ª. Calle 1-59, Apartamento A y B, zona 1, Santa Lucía Cotzumalguapa, Escuintla",
    "coordinates": [14.33597, -91.02481],
    "image": "/image/mintrab.webp",
    "hierarchy": "Jefatura",
    "position": "Delegada",
    "location": "https://maps.app.goo.gl/9EzyaYZWWpxwSdEv5"
},
{
    "region": "Centro",
    "department": "Departamento de Guatemala",
    "name": "Claudia Verónica Ordóñez Padilla",
    "phone": "24222598 - Ext 5019",
    "address": "7a avenida 3-33 zona 9 edificio Torre Empresarial, Ciudad de Guatemala",
    "coordinates": [14.61111, -90.51679],
    "image": "/image/mintrab.webp",
    "hierarchy": "Sede Central",
    "position": "Coordinadora Nacional",
    "location": "https://maps.app.goo.gl/jaYzt5VnQT2kG6AU7"
}
]
